,71,255,30,07,08,013,*54
$GBGSV,5,1,18,43,75,125,32,38,10,041,,33,13,174,,37,21,273,*6A
$GBGSV,5,2,18,46,15,328,,08,21,039,,05,15,125,,13,33,047,*6D
$GBGSV,5,3,18,34,23,110,32,14,31,155,,21,35,055,,28,40,282,*66
$GBGSV,5,4,18,50,46,084,,42,46,124,38,11,48,106,36,23,04,227,*6C
$GBGSV,5,5,18,02,03,102,,60,05,105,*67
$GPZDA,094340.00,19,06,2025,,*67
$GPRMC,094340.00,A,5609.5942199,N,01012.2743721,E,0.0,,190625,4.2,E,A*1B
$GPGLL,5609.5942199,N,01012.2743721,E,094340.00,A,A*66
$GPGGA,094340.00,5609.5942199,N,01012.2743721,E,1,12,1.3,17.6642,M,43.2849,M,,*52
$GPVTG,,T,,M,0.02,N,0.03,K,A*22
$GPHDT,,T*1B
$GPGSA,A,3,10,23,27,,,,,,,,,,2.1,1.3,1.7*30
$GPGSA,A,3,69,,,,,,,,,,,,2.1,1.3,1.7*3A
$GPGSA,A,3,10,12,16,24,,,,,,,,,2.1,1.3,1.7*36
$GPGSA,A,3,11,34,42,43,,,,,,,,,2.1,1.3,1.7*33
$GPGBS,094340.00,549.464,1180.051,1838.658,10,0.0001,3.358,3.844*58
$GPGSV,3,1,12,08,70,261,,16,11,189,,32,15,129,,01,13,257,*79
$GPGSV,3,2,12,23,31,052,24,27,59,156,46,02,44,264,,10,65,099,37*74
$GPGSV,3,3,12,14,08,333,,15,06,021,,30,05,307,,18,02,081,*75
$GLGSV,3,1,10,85,63,303,,68,31,033,,70,11,163,,75,27,250,*61
$GLGSV,3,2,10,76,31,318,,69,47,099,40,84,55,076,,83,03,093,*6B
$GLGSV,3,3,10,77,06,358,,86,08,280,*60
$GAGSV,3,1,11,12,82,078,21,02,13,329,,29,24,063,,19,17,111,*60
$GAGSV,3,2,11,24,34,212,38,33,26,075,,25,44,280,,16,46,244,34*69
$GAGSV,3,3,11,11,41,255,,10,71,255,30,07,08,013,*54
$GBGSV,5,1,18,43,75,125,32,38,10,041,,33,13,174,,37,21,273,*6A
$GBGSV,5,2,18,46,15,328,,08,21,039,,05,15,125,,13,33,047,*6D
$GBGSV,5,3,18,34,23,110,33,14,31,155,,21,35,055,,28,40,282,*67
$GBGSV,5,4,18,50,46,084,,42,46,124,38,11,48,106,36,23,04,227,*6C
$GBGSV,5,5,18,02,03,102,,60,05,105,*67
$GPZDA,094341.00,19,06,2025,,*66
$GPRMC,094341.00,A,5609.5940830,N,01012.2744052,E,0.0,,190625,4.2,E,A*16
$GPGLL,5609.5940830,N,01012.2744052,E,094341.00,A,A*6B
$GPGGA,094341.00,5609.5940830,N,01012.2744052,E,1,12,1.3,17.6594,M,43.2849,M,,*57
$GPVTG,,T,,M,0.02,N,0.03,K,A*22
$GPHDT,,T*1B
$GPGSA,A,3,10,23,27,,,,,,,,,,2.1,1.3,1.7*30
$GPGSA,A,3,69,,,,,,,,,,,,2.1,1.3,1.7*3A
$GPGSA,A,3,10,12,16,24,,,,,,,,,2.1,1.3,1.7*36
$GPGSA,A,3,11,34,42,43,,,,,,,,,2.1,1.3,1.7*33
$GPGBS,094341.00,551.532,1173.998,1833.744,10,0.0001,3.022,3.774*57
$GPGSV,3,1,12,08,70,261,,16,11,189,,32,15,129,,01,13,257,*79
$GPGSV,3,2,12,23,31,052,24,27,59,156,46,02,44,264,,10,65,099,37*74
$GPGSV,3,3,12,14,08,333,,15,06,021,,30,05,307,,18,02,081,*75
$GLGSV,3,1,10,85,63,303,,68,31,033,,70,11,163,,75,27,250,*61
$GLGSV,3,2,10,76,31,318,,69,47,099,40,84,55,076,,83,03,093,*6B
$GLGSV,3,3,10,77,06,358,,86,08,280,*60
$GAGSV,3,1,11,12,82,078,21,02,13,329,,29,24,063,,19,17,111,*60
$GAGSV,3,2,11,24,34,212,38,33,26,075,,25,44,280,,16,46,244,34*69
$GAGSV,3,3,11,11,41,255,,10,71,255,30,07,08,013,*54
$GBGSV,5,1,18,43,75,125,33,38,10,041,,33,13,174,,37,21,273,*6B
$GBGSV,5,2,18,46,15,328,,08,21,039,,05,15,125,,13,33,047,*6D
$GBGSV,5,3,18,34,23,110,33,14,31,155,,21,35,055,,28,40,282,*67
$GBGSV,5,4,18,50,46,084,,42,46,124,39,11,48,106,36,23,04,227,*6D
$GBGSV,5,5,18,02,03,102,,60,05,105,*67
$GPZDA,094342.00,19,06,2025,,*65
$GPRMC,094342.00,A,5609.5939486,N,01012.2744429,E,0.0,,190625,4.2,E,A*12
$GPGLL,5609.5939486,N,01012.2744429,E,094342.00,A,A*6F
$GPGGA,094342.00,5609.5939486,N,01012.2744429,E,1,12,1.3,17.6652,M,43.2849,M,,*5A
$GPVTG,,T,,M,0.01,N,0.01,K,A*23
$GPHDT,,T*1B
$GPGSA,A,3,10,23,27,,,,,,,,,,2.1,1.3,1.7*30
$GPGSA,A,3,69,,,,,,,,,,,,2.1,1.3,1.7*3A
$GPGSA,A,3,10,12,16,24,,,,,,,,,2.1,1.3,1.7*36
$GPGSA,A,3,11,34,42,43,,,,,,,,,2.1,1.3,1.7*33
$GPGBS,094342.00,549.498,1180.977,1838.380,10,0.0001,3.028,3.828*5A
$GPGSV,3,1,12,08,70,261,,16,11,189,,32,15,129,,01,13,257,*79
$GPGSV,3,2,12,23,31,052,24,27,59,156,46,02,44,264,,10,65,099,37*74
$GPGSV,3,3,12,14,08,333,,15,06,021,,30,05,307,,18,02,081,*75
$GLGSV,3,1,10,85,63,303,,68,31,033,,70,11,163,,75,27,250,*61
$GLGSV,3,2,10,76,31,318,,69,47,099,40,84,55,076,,83,03,093,*6B
$GLGSV,3,3,10,77,06,358,,86,08,280,*60
$GAGSV,3,1,11,12,82,078,21,02,13,329,,29,24,063,,19,17,111,*60
$GAGSV,3,2,11,24,34,212,39,33,26,075,,25,44,280,,16,46,244,34*68
$GAGSV,3,3,11,11,41,255,,10,71,255,30,07,08,013,*54
$GBGSV,5,1,18,43,75,125,32,38,10,041,,33,13,174,,37,21,273,*6A
$GBGSV,5,2,18,46,15,328,,08,21,039,,05,15,125,,13,33,047,*6D
$GBGSV,5,3,18,34,23,110,33,14,31,155,,21,35,055,,28,40,282,*67
$GBGSV,5,4,18,50,46,084,,42,46,124,39,11,48,106,36,23,04,227,*6D
$GBGSV,5,5,18,02,03,102,,60,05,105,*67
$GPZDA,094343.00,19,06,2025,,*64
$GPRMC,094343.00,A,5609.5938358,N,01012.2744682,E,0.0,,190625,4.2,E,A*15
$GPGLL,5609.5938358,N,01012.2744682,E,094343.00,A,A*68
$GPGGA,094343.00,5609.5938358,N,01012.2744682,E,1,12,1.3,17.6623,M,43.2849,M,,*5B
$GPVTG,,T,,M,0.01,N,0.03,K,A*21
$GPHDT,,T*1B
$GPGSA,A,3,10,23,27,,,,,,,,,,2.1,1.3,1.7*30
$GPGSA,A,3,69,,,,,,,,,,,,2.1,1.3,1.7*3A
$GPGSA,A,3,10,12,16,24,,,,,,,,,2.1,1.3,1.7*36
$GPGSA,A,3,11,34,42,43,,,,,,,,,2.1,1.3,1.7*33
$GPGBS,094343.00,554.716,1172.941,1829.412,10,0.0001,2.951,3.745*54
$GPGSV,3,1,12,08,70,261,,16,11,189,,32,15,129,,01,13,257,*79
$GPGSV,3,2,12,23,31,052,25,27,59,156,46,02,44,264,22,10,65,099,37*75
$GPGSV,3,3,12,14,08,333,,15,06,021,,30,05,307,,18,02,081,*75
$GLGSV,3,1,10,85,63,303,,68,31,033,,70,11,163,,75,27,250,*61
$GLGSV,3,2,10,76,31,318,,69,47,099,41,84,55,076,,83,03,093,*6A
$GLGSV,3,3,10,77,06,358,,86,08,280,*60
$GAGSV,3,1,11,12,82,078,20,02,13,329,,29,24,063,,19,17,111,*61
$GAGSV,3,2,11,24,34,212,39,33,26,075,,25,44,280,,16,46,244,34*68
$GAGSV,3,3,11,11,41,255,,10,71,255,28,07,08,013,*5D
$GBGSV,5,1,18,43,74,125,32,38,10,041,,33,13,174,,37,21,273,*6B
$GBGSV,5,2,18,46,15,328,,08,21,039,,05,15,125,,13,33,047,*6D
$GBGSV,5,3,18,34,23,110,34,14,31,155,,21,35,055,,28,40,282,*60
$GBGSV,5,4,18,50,46,084,,42,46,124,39,11,48,106,36,23,04,227,*6D
$GBGSV,5,5,18,02,03,102,,60,05,105,*67
$GPZDA,094344.00,19,06,2025,,*63
$GPRMC,094344.00,A,5609.5937215,N,01012.2745042,E,0.0,,190625,4.2,E,A*1E
$GPGLL,5609.5937215,N,01012.2745042,E,094344.00,A,A*63
$GPGGA,094344.00,5609.5937215,N,01012.2745042,E,1,13,1.2,17.6813,M,43.2849,M,,*5D
$GPVTG,,T,,M,0.00,N,0.01,K,A*22
$GPHDT,,T*1B
$GPGSA,A,3,02,10,23,27,,,,,,,,,2.0,1.2,1.6*33
$GPGSA,A,3,69,,,,,,,,,,,,2.0,1.2,1.6*3B
$GPGSA,A,3,10,12,16,24,,,,,,,,,2.0,1.2,1.6*37
$GPGSA,A,3,11,34,42,43,,,,,,,,,2.0,1.2,1.6*32
$GPGBS,094344.00,512.712,1095.504,1713.677,10,0.0001,2.953,3.755*54
$GPGSV,3,1,12,08,70,261,,16,11,189,,32,15,129,,01,13,257,*79
$GPGSV,3,2,12,23,31,052,24,27,59,156,46,02,44,264,21,10,65,099,37*77
$GPGSV,3,3,12,14,08,333,,15,06,021,,30,05,307,,18,02,081,*75
$GLGSV,3,1,10,85,63,303,,68,31,033,,70,11,163,,75,27,250,*61
$GLGSV,3,2,10,76,31,318,,69,47,099,40,84,55,076,,83,03,093,*6B
$GLGSV,3,3,10,77,06,358,,86,08,280,*60
$GAGSV,3,1,11,12,82,078,21,02,13,329,,29,24,063,,19,17,111,*60
$GAGSV,3,2,11,24,34,212,38,33,26,075,,25,44,280,,16,46,244,33*6E
$GAGSV,3,3,11,11,41,255,,10,71,255,29,07,08,013,*5C
$GBGSV,5,1,18,43,74,125,32,38,10,041,,33,13,174,,37,21,273,*6B
$GBGSV,5,2,18,46,15,328,,08,21,039,,05,15,125,,13,33,047,*6D
$GBGSV,5,3,18,34,23,110,33,14,31,155,,21,35,055,,28,40,282,*67
$GBGSV,5,4,18,50,46,084,,42,46,124,38,11,48,106,36,23,04,227,*6C
$GBGSV,5,5,18,02,03,102,,60,05,105,*67
$GPZDA,094345.00,19,06,2025,,*62
$GPRMC,094345.00,A,5609.5936018,N,01012.2745213,E,0.0,,190625,4.2,E,A*17
$GPGLL,5609.5936018,N,01012.2745213,E,094345.00,A,A*6A
$GPGGA,094345.00,5609.5936018,N,01012.2745213,E,1,12,1.3,17.6865,M,43.2849,M,,*55
$GPVTG,,T,,M,0.01,N,0.01,K,A*23
$GPHDT,,T*1B
$GPGSA,A,3,10,23,27,,,,,,,,,,2.1,1.3,1.7*30
$GPGSA,A,3,69,,,,,,,,,,,,2.1,1.3,1.7*3A
$GPGSA,A,3,10,12,16,24,,,,,,,,,2.1,1.3,1.7*36
$GPGSA,A,3,11,34,42,43,,,,,,,,,2.1,1.3,1.7*33
$GPGBS,094345.00,516.116,1100.367,1721.546,10,0.0001,3.006,3.753*53
$GPGSV,3,1,12,08,70,261,,16,11,189,,32,15,129,,01,13,257,*79
$GPGSV,3,2,12,23,31,052,26,27,59,156,46,02,44,264,,10,65,099,37*76
$GPGSV,3,3,12,14,08,333,,15,06,021,,30,05,307,,18,02,081,*75
$GLGSV,3,1,10,85,63,303,,68,31,033,,70,11,163,,75,27,250,*61
$GLGSV,3,2,10,76,31,318,,69,47,099,41,84,55,076,,83,03,093,*6A
$GLGSV,3,3,10,77,06,358,,86,08,280,*60
$GAGSV,3,1,11,12,82,078,21,02,13,329,,29,24,063,,19,17,111,*60
$GAGSV,3,2,11,24,34,212,38,33,26,075,,25,44,280,,16,46,244,34*69
$GAGSV,3,3,11,11,41,255,,10,71,255,29,07,08,013,*5C
$GBGSV,5,1,18,43,74,125,32,38,10,041,,33,13,174,,37,21,273,*6B
$GBGSV,5,2,18,46,15,328,,08,21,039,,05,15,125,,13,33,047,*6D
$GBGSV,5,3,18,34,23,110,33,14,31,155,,21,35,055,,28,40,282,*67
$GBGSV,5,4,18,50,46,084,,42,46,124,39,11,48,106,36,23,04,227,*6D
$GBGSV,5,5,18,02,03,102,,60,05,105,*67
$GPZDA,094346.00,19,06,2025,,*61
$GPRMC,094346.00,A,5609.5934984,N,01012.2745266,E,0.0,,190625,4.2,E,A*18
$GPGLL,5609.5934984,N,01012.2745266,E,094346.00,A,A*65
$GPGGA,094346.00,5609.5934984,N,01012.2745266,E,1,12,1.3,17.7396,M,43.2849,M,,*5C
$GPVTG,,T,,M,0.01,N,0.02,K,A*20
$GPHDT,,T*1B
$GPGSA,A,3,10,23,27,,,,,,,,,,2.1,1.3,1.7*30
$GPGSA,A,3,69,,,,,,,,,,,,2.1,1.3,1.7*3A
$GPGSA,A,3,10,12,16,24,,,,,,,,,2.1,1.3,1.7*36
$GPGSA,A,3,11,34,42,43,,,,,,,,,2.1,1.3,1.7*33
$GPGBS,094346.00,555.902,1173.489,1834.274,10,0.0001,2.865,3.742*58
$GPGSV,3,1,12,08,70,261,,16,11,189,,32,15,129,,01,13,257,*79
$GPGSV,3,2,12,23,31,052,27,27,59,156,46,02,44,264,,10,65,099,37*77
$GPGSV,3,3,12,14,08,333,,15,06,021,,30,05,307,,18,02,081,*75
$GLGSV,3,1,10,85,63,303,,68,31,033,,70,11,163,,75,27,250,*61
$GLGSV,3,2,10,76,31,318,,69,47,099,40,84,55,076,,83,03,093,*6B
$GLGSV,3,3,10,77,06,358,,86,08,280,*60
$GAGSV,3,1,11,12,82,078,22,02,13,329,,29,24,063,,19,17,111,*63
$GAGSV,3,2,11,24,34,212,38,33,26,075,,25,44,280,,16,46,244,34*69
$GAGSV,3,3,11,11,41,255,,10,71,255,29,07,08,013,*5C
$GBGSV,5,1,18,43,74,125,32,08,21,039,,33,13,174,,37,21,273,*65
$GBGSV,5,2,18,46,15,328,,13,33,047,,05,15,125,,21,35,055,*69
$GBGSV,5,3,18,34,23,110,33,14,31,155,,28,40,282,,50,46,084,*69
$GBGSV,5,4,18,42,46,124,39,11,48,106,37,02,03,102,,23,04,227,*65
$GBGSV,5,5,18,38,10,041,,60,05,105,*6A
$GPZDA,094347.00,19,06,2025,,*60
$GPRMC,094347.00,A,5609.5933974,N,01012.2745451,E,0.0,,190625,4.2,E,A*13
$GPGLL,5609.5933974,N,01012.2745451,E,094347.00,A,A*6E
$GPGGA,094347.00,5609.5933974,N,01012.2745451,E,1,12,1.3,17.7484,M,43.2849,M,,*53
$GPVTG,,T,,M,0.02,N,0.04,K,A*25
$GPHDT,,T*1B
$GPGSA,A,3,10,23,27,,,,,,,,,,2.1,1.3,1.7*30
$GPGSA,A,3,69,,,,,,,,,,,,2.1,1.3,1.7*3A
$GPGSA,A,3,10,12,16,24,,,,,,,,,2.1,1.3,1.7*36
$GPGSA,A,3,11,34,42,43,,,,,,,,,2.1,1.3,1.7*33
$GPGBS,094347.00,551.763,1177.251,1826.439,10,0.0001,2.953,3.789*5C
$GPGSV,3,1,12,08,70,261,,16,11,189,,32,15,129,,01,13,257,*79
$GPGSV,3,2,12,23,31,052,27,27,59,156,46,02,44,264,,10,65,099,38*78
$GPGSV,3,3,12,14,08,333,,15,06,021,,30,05,307,,18,02,081,*75
$GLGSV,3,1,10,85,63,303,,68,31,033,,70,11,163,,75,27,250,*61
$GLGSV,3,2,10,76,31,318,,69,47,099,40,84,55,076,,83,03,093,*6B
$GLGSV,3,3,10,77,06,358,,86,08,280,*60
$GAGSV,3,1,11,12,82,078,20,02,13,329,,29,24,063,,19,17,111,*61
$GAGSV,3,2,11,24,34,212,38,33,26,075,,25,44,280,,16,46,244,34*69
$GAGSV,3,3,11,11,41,255,,10,71,255,28,07,08,013,*5D
$GBGSV,5,1,18,43,74,125,33,08,21,039,,33,13,174,,37,21,273,*64
$GBGSV,5,2,18,46,15,328,,13,33,047,,05,15,125,,21,35,055,*69
$GBGSV,5,3,18,34,23,110,33,14,31,155,,28,40,282,,50,46,084,*69
$GBGSV,5,4,18,42,46,124,39,11,48,106,37,02,03,102,,23,04,227,*65
$GBGSV,5,5,18,38,10,041,,60,05,105,*6A
$GPZDA,094348.00,19,06,2025,,*6F
$GPRMC,094348.00,A,5609.5933143,N,01012.2745306,E,0.0,,190625,4.2,E,A*15
$GPGLL,5609.5933143,N,01012.2745306,E,094348.00,A,A*68
$GPGGA,094348.00,5609.5933143,N,01012.2745306,E,1,12,1.3,17.7492,M,43.2849,M,,*52
$GPVTG,,T,,M,0.03,N,0.06,K,A*26
$GPHDT,,T*1B
$GPGSA,A,3,10,23,27,,,,,,,,,,2.1,1.3,1.7*30
$GPGSA,A,3,69,,,,,,,,,,,,2.1,1.3,1.7*3A
$GPGSA,A,3,10,12,16,24,,,,,,,,,2.1,1.3,1.7*36
$GPGSA,A,3,11,34,42,43,,,,,,,,,2.1,1.3,1.7*33
$GPGBS,094348.00,553.349,1178.616,1835.408,10,0.0001,2.824,3.776*54
$GPGSV,3,1,12,08,70,261,,16,11,189,,32,15,129,,01,13,257,*79
$GPGSV,3,2,12,23,31,052,25,27,59,156,46,02,44,264,20,10,65,099,37*77
$GPGSV,3,3,12,14,08,333,,15,06,021,,30,05,307,,18,02,081,*75
$GLGSV,3,1,10,85,63,303,,68,31,033,,70,11,163,,75,27,250,*61
$GLGSV,3,2,10,76,31,318,,69,47,099,41,84,55,076,,83,03,093,*6A
$GLGSV,3,3,10,77,06,358,,86,08,280,*60
$GAGSV,3,1,11,12,82,078,20,02,13,329,,29,24,063,,19,17,111,*61
$GAGSV,3,2,11,24,34,212,37,33,26,075,,25,44,280,,16,46,244,34*66
$GAGSV,3,3,11,11,41,255,,10,71,255,27,07,08,013,*52
$GBGSV,5,1,18,43,74,125,32,08,21,039,,33,13,174,,37,21,273,*65
$GBGSV,5,2,18,46,15,328,,13,33,047,,05,15,125,,21,35,055,*69
$GBGSV,5,3,18,34,23,110,33,14,31,155,,28,40,282,,50,46,084,*69
$GBGSV,5,4,18,42,46,124,39,11,48,106,36,02,03,102,,23,04,227,*64
$GBGSV,5,5,18,38,10,041,,60,05,105,*6A
$GPZDA,094349.00,19,06,2025,,*6E
$GPRMC,094349.00,A,5609.5932004,N,01012.2745343,E,0.0,,190625,4.2,E,A*16
$GPGLL,5609.5932004,N,01012.2745343,E,094349.00,A,A*6B
$GPGGA,094349.00,5609.5932004,N,01012.2745343,E,1,13,1.2,17.7710,M,43.2849,M,,*58
$GPVTG,,T,,M,0.01,N,0.02,K,A*20
$GPHDT,,T*1B
$GPGSA,A,3,02,10,23,27,,,,,,,,,2.0,1.2,1.6*33
$GPGSA,A,3,69,,,,,,,,,,,,2.0,1.2,1.6*3B
$GPGSA,A,3,10,12,16,24,,,,,,,,,2.0,1.2,1.6*37
$GPGSA,A,3,11,34,42,43,,,,,,,,,2.0,1.2,1.6*32
$GPGBS,094349.00,517.877,1117.314,1741.314,10,0.0001,2.830,3.816*57
$GPGSV,3,1,12,08,70,261,,16,11,189,,32,15,129,,01,13,257,*79
$GPGSV,3,2,12,23,31,052,25,27,59,156,46,02,44,264,20,10,65,099,37*77
$GPGSV,3,3,12,14,08,333,,15,06,021,,30,05,307,,18,02,081,*75
$GLGSV,3,1,10,85,63,303,,68,31,033,,70,11,163,,75,27,250,*61
$GLGSV,3,2,10,76,31,318,,69,47,099,41,84,55,076,,83,03,093,*6A
$GLGSV,3,3,10,77,07,358,,86,08,280,*61
$GAGSV,3,1,11,12,82,078,20,02,13,329,,29,24,063,,19,17,111,*61
$GAGSV,3,2,11,24,34,212,38,33,26,075,,25,44,280,,16,45,244,33*6D
$GAGSV,3,3,11,11,41,255,,10,71,255,28,07,08,013,*5D
$GBGSV,5,1,18,43,74,125,32,08,21,039,,33,13,174,,37,21,273,*65
$GBGSV,5,2,18,46,15,328,,13,33,047,,05,15,125,,21,35,055,*69
$GBGSV,5,3,18,34,23,110,33,14,31,155,,28,40,282,,50,46,084,*69
$GBGSV,5,4,18,42,46,124,39,11,48,106,36,02,03,102,,23,04,227,*64
$GBGSV,5,5,18,38,10,041,,60,05,105,*6A
$GPZDA,094350.00,19,06,2025,,*66
$GPRMC,094350.00,A,5609.5930656,N,01012.2745577,E,0.0,,190625,4.2,E,A*1C
$GPGLL,5609.5930656,N,01012.2745577,E,094350.00,A,A*61
$GPGGA,094350.00,5609.5930656,N,01012.2745577,E,1,12,1.3,17.7903,M,43.2849,M,,*5E
$GPVTG,,T,,M,0.02,N,0.03,K,A*22
$GPHDT,,T*1B
$GPGSA,A,3,10,23,27,,,,,,,,,,2.1,1.3,1.7*30
$GPGSA,A,3,69,,,,,,,,,,,,2.1,1.3,1.7*3A
$GPGSA,A,3,10,12,16,24,,,,,,,,,2.1,1.3,1.7*36
$GPGSA,A,3,11,34,42,43,,,,,,,,,2.1,1.3,1.7*33
$GPGBS,094350.00,558.156,1176.758,1832.785,10,0.0001,2.580,3.730*5F
$GPGSV,3,1,12,08,70,261,,16,11,189,,32,15,129,,01,13,257,*79
$GPGSV,3,2,12,23,31,052,25,27,59,156,46,02,44,264,,10,65,099,37*75
$GPGSV,3,3,12,14,08,333,,15,06,021,,30,05,307,,18,02,081,*75
$GLGSV,3,1,10,85,63,303,,68,31,033,,70,11,163,,75,27,250,*61
$GLGSV,3,2,10,76,31,318,,69,47,099,41,84,55,076,,83,03,093,*6A
$GLGSV,3,3,10,77,07,358,,86,08,280,*61
$GAGSV,3,1,11,12,82,078,21,02,13,329,,29,24,063,,19,17,111,*60
$GAGSV,3,2,11,24,34,212,38,33,26,075,,25,44,280,,16,45,244,34*6A
$GAGSV,3,3,11,11,41,255,,10,71,255,28,07,08,013,*5D
$GBGSV,5,1,18,43,74,125,32,08,21,039,,33,13,174,,37,21,273,*65
$GBGSV,5,2,18,46,15,328,,13,33,047,,05,15,125,,21,35,055,*69
$GBGSV,5,3,18,34,23,110,33,14,31,155,,28,40,282,,50,46,084,*69
$GBGSV,5,4,18,42,46,124,39,11,48,106,36,02,03,102,,23,04,227,*64
$GBGSV,5,5,18,38,10,041,,60,05,105,*6A
$GPZDA,094351.00,19,06,2025,,*67
$GPRMC,094351.00,A,5609.5929660,N,01012.2745641,E,0.0,,190625,4.2,E,A*16
$GPGLL,5609.5929660,N,01012.2745641,E,094351.00,A,A*6B
$GPGGA,094351.00,5609.5929660,N,01012.2745641,E,1,12,1.3,17.7728,M,43.2849,M,,*53
$GPVTG,,T,,M,0.01,N,0.03,K,A*21
$GPHDT,,T*1B
$GPGSA,A,3,10,23,27,,,,,,,,,,2.1,1.3,1.7*30
$GPGSA,A,3,69,,,,,,,,,,,,2.1,1.3,1.7*3A
$GPGSA,A,3,10,12,16,24,,,,,,,,,2.1,1.3,1.7*36
$GPGSA,A,3,11,34,42,43,,,,,,,,,2.1,1.3,1.7*33
$GPGBS,094351.00,555.910,1177.276,1836.303,10,0.0001,2.293,3.782*53
$GPGSV,3,1,12,08,70,261,,16,11,189,,32,15,129,,01,13,257,*79
$GPGSV,3,2,12,23,31,052,26,27,59,156,46,02,44,264,,10,65,099,38*79
$GPGSV,3,3,12,14,08,333,,15,06,021,,30,05,307,,18,02,081,*75
$GLGSV,3,1,10,85,63,303,,68,31,033,,70,11,163,,75,27,250,*61
$GLGSV,3,2,10,76,31,318,,69,47,099,41,84,55,076,,83,03,093,*6A
$GLGSV,3,3,10,77,07,358,,86,08,280,*61
$GAGSV,3,1,11,12,82,078,20,02,13,329,,29,24,063,,19,17,111,*61
$GAGSV,3,2,11,24,34,212,38,33,26,075,,25,44,280,,16,45,244,34*6A
$GAGSV,3,3,11,11,41,255,,10,71,255,28,07,08,013,*5D
$GBGSV,5,1,18,43,74,125,32,08,21,039,,33,13,174,,37,21,273,*65
$GBGSV,5,2,18,46,15,328,,13,33,047,,05,15,125,,21,35,055,*69
$GBGSV,5,3,18,34,23,110,32,14,31,155,,28,40,282,,50,46,084,*68
$GBGSV,5,4,18,42,46,124,38,11,48,106,36,02,03,102,,23,04,227,*65
$GBGSV,5,5,18,38,10,041,,60,05,105,*6A
$GPZDA,094352.00,19,06,2025,,*64
$GPRMC,094352.00,A,5609.5928902,N,01012.2745818,E,0.0,,190625,4.2,E,A*1D
$GPGLL,5609.5928902,N,01012.2745818,E,094352.00,A,A*60
$GPGGA,094352.00,5609.5928902,N,01012.2745818,E,1,12,1.3,17.7732,M,43.2849,M,,*53
$GPVTG,,T,,M,0.02,N,0.03,K,A*22
$GPHDT,,T*1B
$GPGSA,A,3,10,23,27,,,,,,,,,,2.1,1.3,1.7*30
$GPGSA,A,3,69,,,,,,,,,,,,2.1,1.3,1.7*3A
$GPGSA,A,3,10,12,16,24,,,,,,,,,2.1,1.3,1.7*36
$GPGSA,A,3,11,34,42,43,,,,,,,,,2.1,1.3,1.7*33
$GPGBS,094352.00,556.008,1173.068,1826.974,11,0.0001,-3.181,6.397*79
$GPGSV,3,1,12,08,70,261,,16,11,189,,32,15,129,,01,13,257,*79
$GPGSV,3,2,12,23,31,052,24,27,59,156,46,02,44,264,,10,65,099,37*74
$GPGSV,3,3,12,14,08,333,,15,06,021,,30,05,307,,18,01,081,*76
$GLGSV,3,1,10,85,63,303,,68,31,033,,70,11,163,,75,27,250,*61
$GLGSV,3,2,10,76,31,318,,69,47,099,40,84,55,076,,83,03,093,*6B
$GLGSV,3,3,10,77,07,358,,86,09,280,*60
$GAGSV,3,1,11,12,82,078,20,02,13,329,,29,24,063,,19,18,111,*6E
$GAGSV,3,2,11,24,34,212,37,33,26,075,,25,44,280,,16,45,244,33*62
$GAGSV,3,3,11,11,41,255,,10,71,255,27,07,08,013,*52
$GBGSV,5,1,18,43,74,125,32,08,21,039,,33,13,174,,37,20,273,*64
$GBGSV,5,2,18,46,15,328,,13,33,047,,05,15,125,,21,35,055,*69
$GBGSV,5,3,18,34,23,110,32,14,31,155,,28,40,282,,50,46,084,*68
$GBGSV,5,4,18,42,46,124,37,11,47,106,36,02,03,102,,23,04,227,*65
$GBGSV,5,5,18,38,10,041,,60,05,105,*6A
$GPZDA,094353.00,19,06,2025,,*65
$GPRMC,094353.00,A,5609.5928177,N,01012.2746207,E,0.0,,190625,4.2,E,A*11
$GPGLL,5609.5928177,N,01012.2746207,E,094353.00,A,A*6C
$GPGGA,094353.00,5609.5928177,N,01012.2746207,E,1,12,1.3,17.7944,M,43.2849,M,,*50
$GPVTG,,T,,M,0.02,N,0.03,K,A*22
$GPHDT,,T*1B
$GPGSA,A,3,10,23,27,,,,,,,,,,2.1,1.3,1.7*30
$GPGSA,A,3,69,,,,,,,,,,,,2.1,1.3,1.7*3A
$GPGSA,A,3,10,12,16,24,,,,,,,,,2.1,1.3,1.7*36
$GPGSA,A,3,11,34,42,43,,,,,,,,,2.1,1.3,1.7*33
$GPGBS,094353.00,553.552,1183.732,1839.023,11,0.0001,-3.607,6.394*7F
$GPGSV,3,1,12,08,70,261,,16,11,189,,32,15,129,,01,13,257,*79
$GPGSV,3,2,12,23,31,052,24,27,59,156,46,02,44,264,,10,65,099,36*75
$GPGSV,3,3,12,14,08,333,,15,06,021,,30,05,307,,18,01,081,*76
$GLGSV,3,1,10,85,63,303,,68,31,033,,70,11,163,,75,27,250,*61
$GLGSV,3,2,10,76,31,318,,69,47,099,40,84,55,076,,83,03,093,*6B
$GLGSV,3,3,10,77,07,358,,86,09,280,*60
$GAGSV,3,1,11,12,82,078,19,02,13,329,,29,24,063,,19,18,111,*64
$GAGSV,3,2,11,24,34,212,37,33,26,075,,25,44,280,,16,45,244,33*62
$GAGSV,3,3,11,11,41,255,,10,71,255,27,07,08,013,*52
$GBGSV,5,1,18,43,74,125,32,08,21,039,,33,13,174,,37,20,273,*64
$GBGSV,5,2,18,46,15,328,,13,33,047,,05,15,125,,21,35,055,*69
$GBGSV,5,3,18,34,23,110,32,14,31,155,,28,40,282,,50,46,084,*68
$GBGSV,5,4,18,42,46,124,38,11,47,106,36,02,03,102,,23,04,227,*6A
$GBGSV,5,5,18,38,10,041,,60,05,105,*6A
$GPZDA,094354.00,19,06,2025,,*62
$GPRMC,094354.00,A,5609.5927396,N,01012.2746679,E,0.0,,190625,4.2,E,A*19
$GPGLL,5609.5927396,N,01012.2746679,E,094354.00,A,A*64
$GPGGA,094354.00,5609.5927396,N,01012.2746679,E,1,12,1.3,17.8130,M,43.2849,M,,*5C
$GPVTG,,T,,M,0.02,N,0.04,K,A*25
$GPHDT,,T*1B
$GPGSA,A,3,10,23,27,,,,,,,,,,2.1,1.3,1.7*30
$GPGSA,A,3,69,,,,,,,,,,,,2.1,1.3,1.7*3A
$GPGSA,A,3,10,12,16,24,,,,,,,,,2.1,1.3,1.7*36
$GPGSA,A,3,11,34,42,43,,,,,,,,,2.1,1.3,1.7*33
$GPGBS,094354.00,567.884,1216.575,1890.671,11,0.0001,-3.429,6.482*7B
$GPGSV,3,1,12,08,70,261,,16,11,189,,32,15,129,,01,13,257,*79
$GPGSV,3,2,12,23,31,052,23,27,59,156,45,02,44,264,,10,65,099,36*71
$GPGSV,3,3,12,14,08,333,,15,06,021,,30,05,307,,18,01,081,*76
$GLGSV,3,1,10,85,63,303,,68,31,033,,70,11,163,,75,27,250,*61
$GLGSV,3,2,10,76,31,318,,69,47,099,38,84,55,076,,83,03,093,*64
$GLGSV,3,3,10,77,07,358,,86,09,280,*60
$GAGSV,3,1,11,12,82,078,20,02,13,329,,29,24,063,,19,18,111,*6E
$GAGSV,3,2,11,24,34,212,36,33,26,075,,25,44,280,,16,45,244,32*62
$GAGSV,3,3,11,11,41,255,,10,71,255,26,07,08,013,*53
$GBGSV,5,1,18,43,74,125,30,08,21,039,,33,13,174,,37,20,273,*66
$GBGSV,5,2,18,46,15,328,,13,33,047,,05,15,125,,21,35,055,*69
$GBGSV,5,3,18,34,23,110,31,14,31,155,,28,40,282,,50,46,084,*6B
$GBGSV,5,4,18,42,46,124,36,11,47,106,35,02,03,102,,23,04,227,*67
$GBGSV,5,5,18,38,10,041,,60,05,105,*6A
$GPZDA,094355.00,19,06,2025,,*63
$GPRMC,094355.00,A,5609.5927027,N,01012.2746976,E,0.0,,190625,4.2,E,A*11
$GPGLL,5609.5927027,N,01012.2746976,E,094355.00,A,A*6C
$GPGGA,094355.00,5609.5927027,N,01012.2746976,E,1,12,1.3,17.8079,M,43.2849,M,,*58
$GPVTG,,T,,M,0.01,N,0.02,K,A*20
$GPHDT,,T*1B
$GPGSA,A,3,10,23,27,,,,,,,,,,2.1,1.3,1.7*30
$GPGSA,A,3,69,,,,,,,,,,,,2.1,1.3,1.7*3A
$GPGSA,A,3,10,12,16,24,,,,,,,,,2.1,1.3,1.7*36
$GPGSA,A,3,11,34,42,43,,,,,,,,,2.1,1.3,1.7*33
$GPGBS,094355.00,554.837,1176.356,1832.533,11,0.0001,-3.408,6.399*73
$GPGSV,3,1,12,08,70,260,,16,11,189,,32,15,129,,01,13,257,*78
$GPGSV,3,2,12,23,31,052,24,27,59,156,46,02,44,264,,10,65,099,37*74
$GPGSV,3,3,12,14,08,333,,15,06,021,,30,05,307,,18,01,081,*76
$GLGSV,3,1,10,85,63,303,,68,31,033,,70,11,163,,75,27,250,*61
$GLGSV,3,2,10,76,31,318,,69,47,099,40,84,55,076,,83,03,093,*6B
$GLGSV,3,3,10,77,07,358,,86,09,280,*60
$GAGSV,3,1,11,12,82,078,21,02,13,329,,29,24,063,,19,18,111,*6F
$GAGSV,3,2,11,24,34,212,38,33,26,075,,25,44,280,,16,45,244,33*6D
$GAGSV,3,3,11,11,41,255,,10,71,255,27,07,08,013,*52
$GBGSV,5,1,18,43,74,125,32,08,21,039,,33,13,174,,37,20,273,*64
$GBGSV,5,2,18,46,15,328,,13,33,047,,05,15,125,,21,35,055,*69
$GBGSV,5,3,18,34,23,110,32,14,31,155,,28,40,282,,50,46,084,*68
$GBGSV,5,4,18,42,46,124,38,11,47,106,36,02,03,102,,23,04,227,*6A
$GBGSV,5,5,18,38,10,041,,60,05,105,*6A
$GPZDA,094356.00,19,06,2025,,*60
$GPRMC,094356.00,A,5609.5926555,N,01012.2747176,E,0.0,,190625,4.2,E,A*1A
$GPGLL,5609.5926555,N,01012.2747176,E,094356.00,A,A*67
$GPGGA,094356.00,5609.5926555,N,01012.2747176,E,1,12,1.3,17.8282,M,43.2849,M,,*55
$GPVTG,,T,,M,0.01,N,0.02,K,A*20
$GPHDT,,T*1B
$GPGSA,A,3,10,23,27,,,,,,,,,,2.1,1.3,1.7*30
$GPGSA,A,3,69,,,,,,,,,,,,2.1,1.3,1.7*3A
$GPGSA,A,3,10,12,16,24,,,,,,,,,2.1,1.3,1.7*36
$GPGSA,A,3,11,34,42,43,,,,,,,,,2.1,1.3,1.7*33
$GPGBS,094356.00,559.173,1184.761,1843.474,11,0.0001,-2.774,6.415*77
$GPGSV,3,1,12,08,70,260,,16,11,189,,32,15,129,,01,13,257,*78
$GPGSV,3,2,12,23,31,052,22,27,59,156,46,02,44,264,,10,65,099,37*72
$GPGSV,3,3,12,14,08,333,,15,06,021,,30,05,307,,18,01,081,*76
$GLGSV,3,1,10,85,63,303,,68,31,033,,70,11,163,,75,27,250,*61
$GLGSV,3,2,10,76,31,318,,69,47,099,40,84,55,076,,83,03,093,*6B
$GLGSV,3,3,10,77,07,358,,86,09,280,*60
$GAGSV,3,1,11,12,82,078,20,02,13,329,,29,24,063,,19,18,111,*6E
$GAGSV,3,2,11,24,34,212,38,33,26,075,,25,44,280,,16,45,244,34*6A
$GAGSV,3,3,11,11,41,255,,10,71,255,27,07,08,013,*52
$GBGSV,5,1,18,43,74,125,32,08,21,039,,33,13,174,,37,20,273,*64
$GBGSV,5,2,18,46,15,328,,13,33,047,,05,15,125,,21,35,055,*69
$GBGSV,5,3,18,34,23,110,32,14,31,155,,28,40,282,,50,46,084,*68
$GBGSV,5,4,18,42,46,124,38,11,47,106,36,02,03,102,,23,04,227,*6A
$GBGSV,5,5,18,38,10,041,,60,05,105,*6A
$GPZDA,094357.00,19,06,2025,,*61
$GPRMC,094357.00,A,5609.5926033,N,01012.2747577,E,0.0,,190625,4.2,E,A*1B
$GPGLL,5609.5926033,N,01012.2747577,E,094357.00,A,A*66
$GPGGA,094357.00,5609.5926033,N,01012.2747577,E,1,12,1.3,17.8480,M,43.2849,M,,*50
$GPVTG,,T,,M,0.01,N,0.03,K,A*21
$GPHDT,,T*1B
$GPGSA,A,3,10,23,27,,,,,,,,,,2.1,1.3,1.7*30
$GPGSA,A,3,69,,,,,,,,,,,,2.1,1.3,1.7*3A
$GPGSA,A,3,10,12,16,24,,,,,,,,,2.1,1.3,1.7*36
$GPGSA,A,3,11,34,42,43,,,,,,,,,2.1,1.3,1.7*33
$GPGBS,094357.00,563.697,1205.130,1873.102,10,0.0001,1.731,3.877*5E
$GPGSV,3,1,12,08,70,260,,16,11,189,,32,15,129,,01,13,257,*78
$GPGSV,3,2,12,23,31,052,22,27,59,156,45,02,44,264,,10,65,099,36*70
$GPGSV,3,3,12,14,08,333,,15,06,021,,30,05,307,,18,01,081,*76
$GLGSV,3,1,10,85,63,303,,68,31,033,,70,11,163,,75,27,250,*61
$GLGSV,3,2,10,76,31,318,,69,47,099,38,84,55,076,,83,03,093,*64
$GLGSV,3,3,10,77,07,358,,86,09,280,*60
$GAGSV,3,1,11,12,82,078,19,02,13,329,,29,24,063,,19,18,111,*64
$GAGSV,3,2,11,24,34,212,36,33,26,075,,25,44,280,,16,45,244,32*62
$GAGSV,3,3,11,11,41,255,,10,71,255,26,07,08,013,*53
$GBGSV,5,1,18,43,74,125,32,08,21,039,,33,13,174,,37,20,273,*64
$GBGSV,5,2,18,46,15,328,,13,33,047,,05,15,125,,21,35,055,*69
$GBGSV,5,3,18,34,23,110,31,14,31,155,,28,40,282,,50,46,084,*6B
$GBGSV,5,4,18,42,46,124,37,11,47,106,35,02,03,102,,23,04,227,*66
$GBGSV,5,5,18,38,10,041,,60,05,105,*6A
$GPZDA,094358.00,19,06,2025,,*6E
$GPRMC,094358.00,A,5609.5925647,N,01012.2747650,E,0.0,,190625,4.2,E,A*14
$GPGLL,5609.5925647,N,01012.2747650,E,094358.00,A,A*69
$GPGGA,094358.00,5609.5925647,N,01012.2747650,E,1,11,2.3,17.8548,M,43.2849,M,,*5A
$GPVTG,,T,,M,0.01,N,0.02,K,A*20
$GPHDT,,T*1B
$GPGSA,A,3,10,27,,,,,,,,,,,3.4,2.3,2.5*37
$GPGSA,A,3,69,,,,,,,,,,,,3.4,2.3,2.5*3C
$GPGSA,A,3,10,12,16,24,,,,,,,,,3.4,2.3,2.5*30
$GPGSA,A,3,11,34,42,43,,,,,,,,,3.4,2.3,2.5*35
$GPGBS,094358.00,560.118,1177.635,1836.058,11,0.0001,-3.007,6.413*7E
$GPGSV,3,1,12,08,70,260,,16,11,189,,32,15,129,,01,13,257,*78
$GPGSV,3,2,12,23,31,052,22,27,59,156,46,02,44,264,,10,65,099,37*72
$GPGSV,3,3,12,14,08,333,,15,06,021,,30,05,307,,18,01,081,*76
$GLGSV,3,1,10,85,63,303,,68,31,033,,70,11,163,,75,27,250,*61
$GLGSV,3,2,10,76,31,318,,69,47,099,41,84,55,076,,83,03,094,*6D
$GLGSV,3,3,10,77,07,358,,86,09,280,*60
$GAGSV,3,1,11,12,82,078,22,02,13,329,,29,24,063,,19,18,111,*6C
$GAGSV,3,2,11,24,34,212,37,33,26,075,,25,44,280,,16,45,244,33*62
$GAGSV,3,3,11,11,41,255,,10,71,255,26,07,08,013,*53
$GBGSV,5,1,18,43,74,125,33,08,21,039,,33,13,174,,37,20,273,*65
$GBGSV,5,2,18,46,15,328,,13,33,047,,05,15,125,,21,35,055,*69
$GBGSV,5,3,18,34,23,110,32,14,31,155,,28,40,282,,50,46,084,*68
$GBGSV,5,4,18,42,46,124,38,11,47,106,36,02,03,102,,23,04,227,*6A
$GBGSV,5,5,18,38,10,041,,60,05,105,*6A
$GPZDA,094554.00,19,06,2025,,*64
$GPRMC,094554.00,A,5609.5906608,N,01012.2747519,E,0.0,,190625,4.2,E,A*1A
$GPGLL,5609.5906608,N,01012.2747519,E,094554.00,A,A*67
$GPGGA,094554.00,5609.5906608,N,01012.2747519,E,1,12,1.4,18.8548,M,43.2849,M,,*5C
$GPVTG,,T,,M,0.01,N,0.02,K,A*20
$GPHDT,,T*1B
$GPGSA,A,3,10,27,,,,,,,,,,,2.2,1.4,1.8*3A
$GPGSA,A,3,69,,,,,,,,,,,,2.2,1.4,1.8*31
$GPGSA,A,3,10,12,16,24,,,,,,,,,2.2,1.4,1.8*3D
$GPGSA,A,3,11,21,34,42,43,,,,,,,,2.2,1.4,1.8*3B
$GPGBS,094554.00,587.450,1249.510,1867.033,10,0.0001,1.463,3.780*53
$GPGSV,3,1,12,08,70,258,,32,16,128,,23,30,052,,01,14,257,*74
$GPGSV,3,2,12,27,58,156,46,02,45,265,,10,65,097,37,18,01,081,*78
$GPGSV,3,3,12,16,10,189,,14,08,333,,30,04,307,,15,05,020,*72
$GLGSV,3,1,10,85,64,304,,68,30,032,,70,12,163,,75,26,249,35*6D
$GLGSV,3,2,10,76,31,317,,69,48,097,36,84,54,077,,83,02,094,*62
$GLGSV,3,3,10,77,07,358,,86,09,280,*60
$GAGSV,3,1,11,12,82,078,23,02,14,329,,29,24,062,,19,18,110,*6A
$GAGSV,3,2,11,24,34,211,41,33,25,076,,25,44,279,,16,45,243,32*60
$GAGSV,3,3,11,11,42,255,,10,71,256,28,07,08,012,*5C
$GBGSV,5,1,18,43,74,125,31,08,21,039,,33,14,174,,37,20,272,*61
$GBGSV,5,2,18,46,16,327,,13,33,047,,05,15,125,,21,35,054,25*63
$GBGSV,5,3,18,34,22,110,36,14,32,155,33,50,46,083,,28,40,282,*69
$GBGSV,5,4,18,42,46,123,39,11,47,106,36,02,03,102,,23,04,227,*6C
$GBGSV,5,5,18,38,10,041,,60,05,105,*6A
$GPZDA,094555.00,19,06,2025,,*65
$GPRMC,094555.00,A,5609.5906635,N,01012.2747416,E,0.0,,190625,4.2,E,A*1B
$GPGLL,5609.5906635,N,01012.2747416,E,094555.00,A,A*66
$GPGGA,094555.00,5609.5906635,N,01012.2747416,E,1,12,1.4,18.8712,M,43.2849,M,,*50
$GPVTG,,T,,M,0.01,N,0.02,K,A*20
$GPHDT,,T*1B
$GPGSA,A,3,10,27,,,,,,,,,,,2.2,1.4,1.8*3A
$GPGSA,A,3,69,,,,,,,,,,,,2.2,1.4,1.8*31
$GPGSA,A,3,10,12,16,24,,,,,,,,,2.2,1.4,1.8*3D
$GPGSA,A,3,11,21,34,42,43,,,,,,,,2.2,1.4,1.8*3B
$GPGBS,094555.00,611.910,1272.459,1913.700,11,0.0001,-2.273,6.372*72
$GPGSV,3,1,12,08,70,258,,32,16,128,,23,30,052,,01,14,257,*74
$GPGSV,3,2,12,27,58,156,47,02,45,265,,10,65,097,37,18,01,081,*79
$GPGSV,3,3,12,16,10,189,,14,08,333,,30,04,307,,15,05,020,*72
$GLGSV,3,1,10,85,64,304,,68,30,032,,70,12,163,,75,26,249,35*6D
$GLGSV,3,2,10,76,31,317,,69,48,097,36,84,54,077,,83,02,094,*62
$GLGSV,3,3,10,77,07,358,,86,09,280,*60
$GAGSV,3,1,11,12,82,078,24,02,14,329,,29,24,062,,19,18,110,*6D
$GAGSV,3,2,11,24,34,211,41,33,25,076,,25,44,279,,16,45,243,32*60
$GAGSV,3,3,11,11,42,255,,10,71,256,28,07,08,012,*5C
$GBGSV,5,1,18,43,74,125,32,08,21,039,,33,14,174,,37,20,272,*62
$GBGSV,5,2,18,46,16,327,,13,33,047,,05,15,125,,21,35,054,23*65
$GBGSV,5,3,18,34,22,110,36,14,32,155,32,50,46,083,,28,40,282,*68
$GBGSV,5,4,18,42,46,123,40,11,47,106,36,02,03,102,,23,04,227,*62
$GBGSV,5,5,18,38,10,041,,60,05,105,*6A
$GPZDA,094556.00,19,06,2025,,*66
$GPRMC,094556.00,A,5609.5906530,N,01012.2747531,E,0.0,,190625,4.2,E,A*1A
$GPGLL,5609.5906530,N,01012.2747531,E,094556.00,A,A*67
$GPGGA,094556.00,5609.5906530,N,01012.2747531,E,1,12,1.4,18.8765,M,43.2849,M,,*51
$GPVTG,,T,,M,0.01,N,0.02,K,A*20
$GPHDT,,T*1B
$GPGSA,A,3,10,27,,,,,,,,,,,2.2,1.4,1.8*3A
$GPGSA,A,3,69,,,,,,,,,,,,2.2,1.4,1.8*31
$GPGSA,A,3,10,12,16,24,,,,,,,,,2.2,1.4,1.8*3D
$GPGSA,A,3,11,21,34,42,43,,,,,,,,2.2,1.4,1.8*3B
$GPGBS,094556.00,601.613,1257.086,1891.314,11,0.0001,-2.529,6.396*75
$GPGSV,3,1,12,08,70,258,,32,16,128,,23,30,052,21,01,14,257,*77
$GPGSV,3,2,12,27,58,156,47,02,45,265,,10,65,097,37,18,01,081,*79
$GPGSV,3,3,12,16,10,189,,14,08,333,,30,04,307,,15,05,020,*72
$GLGSV,3,1,10,85,64,304,,68,30,032,,70,12,163,,75,26,249,35*6D
$GLGSV,3,2,10,76,31,317,,69,48,097,36,84,54,077,,83,02,094,*62
$GLGSV,3,3,10,77,07,358,,86,09,280,*60
$GAGSV,3,1,11,12,82,078,24,02,14,329,,29,24,062,,19,18,110,*6D
$GAGSV,3,2,11,24,34,211,41,33,25,076,,25,44,279,,16,45,243,32*60
$GAGSV,3,3,11,11,42,255,,10,71,256,28,07,08,012,*5C
$GBGSV,5,1,18,43,74,125,32,08,21,039,,33,14,174,,37,20,272,*62
$GBGSV,5,2,18,46,16,327,,13,33,047,,05,15,125,,21,35,054,23*65
$GBGSV,5,3,18,34,22,110,36,14,32,155,32,50,46,083,,28,40,282,*68
$GBGSV,5,4,18,42,46,123,40,11,47,106,36,02,03,102,,23,04,227,*62
$GBGSV,5,5,18,38,10,041,,60,05,105,*6A
$GPZDA,094557.00,19,06,2025,,*67
$GPRMC,094557.00,A,5609.5906745,N,01012.2747478,E,0.0,,190625,4.2,E,A*17
$GPGLL,5609.5906745,N,01012.2747478,E,094557.00,A,A*6A
$GPGGA,094557.00,5609.5906745,N,01012.2747478,E,1,12,1.4,18.8595,M,43.2849,M,,*51
$GPVTG,,T,,M,0.02,N,0.03,K,A*22
$GPHDT,,T*1B
$GPGSA,A,3,10,27,,,,,,,,,,,2.2,1.4,1.8*3A
$GPGSA,A,3,69,,,,,,,,,,,,2.2,1.4,1.8*31
$GPGSA,A,3,10,12,16,24,,,,,,,,,2.2,1.4,1.8*3D
$GPGSA,A,3,11,21,34,42,43,,,,,,,,2.2,1.4,1.8*3B
$GPGBS,094557.00,599.303,1254.612,1888.075,11,0.0001,-2.890,6.391*7E
$GPGSV,3,1,12,08,70,258,,32,16,128,,23,30,052,20,01,14,257,*76
$GPGSV,3,2,12,27,58,156,47,02,45,265,,10,65,097,37,18,01,081,*79
$GPGSV,3,3,12,16,10,189,,14,08,333,,30,04,307,,15,05,020,*72
$GLGSV,3,1,10,85,64,304,,68,30,032,,70,12,163,,75,26,249,35*6D
$GLGSV,3,2,10,76,31,317,,69,48,097,36,84,54,077,,83,02,094,*62
$GLGSV,3,3,10,77,07,358,,86,09,280,*60
$GAGSV,3,1,11,12,82,078,24,02,14,329,,29,24,062,,19,18,110,*6D
$GAGSV,3,2,11,24,34,211,41,33,25,076,,25,44,279,,16,45,243,32*60
$GAGSV,3,3,11,11,42,255,,10,71,256,28,07,08,012,*5C
$GBGSV,5,1,18,43,74,125,32,08,21,039,,33,14,174,,37,20,272,*62
$GBGSV,5,2,18,46,16,327,,13,33,047,,05,15,125,,21,35,054,23*65
$GBGSV,5,3,18,34,22,110,36,14,32,155,33,50,46,083,,28,40,282,*69
$GBGSV,5,4,18,42,46,123,40,11,47,106,37,02,03,102,,23,04,227,*63
$GBGSV,5,5,18,38,10,041,,60,05,105,*6A
$GPZDA,094558.00,19,06,2025,,*68
$GPRMC,094558.00,A,5609.5907060,N,01012.2747288,E,0.0,,190625,4.2,E,A*10
$GPGLL,5609.5907060,N,01012.2747288,E,094558.00,A,A*6D
$GPGGA,094558.00,5609.5907060,N,01012.2747288,E,1,12,1.4,18.8439,M,43.2849,M,,*51
$GPVTG,,T,,M,0.01,N,0.03,K,A*21
$GPHDT,,T*1B
$GPGSA,A,3,10,27,,,,,,,,,,,2.2,1.4,1.8*3A
$GPGSA,A,3,69,,,,,,,,,,,,2.2,1.4,1.8*31
$GPGSA,A,3,10,12,16,24,,,,,,,,,2.2,1.4,1.8*3D
$GPGSA,A,3,11,21,34,42,43,,,,,,,,2.2,1.4,1.8*3B
$GPGBS,094558.00,590.706,1256.136,1874.809,11,0.0001,-3.174,6.417*71
$GPGSV,3,1,12,08,70,258,,32,16,128,,23,30,052,19,01,14,257,*7C
$GPGSV,3,2,12,27,58,156,47,02,45,265,21,10,65,097,37,18,01,081,*7A
$GPGSV,3,3,12,16,10,189,,14,08,333,,30,04,307,,15,05,020,*72
$GLGSV,3,1,10,85,64,304,,68,30,032,,70,12,163,,75,26,249,35*6D
$GLGSV,3,2,10,76,31,317,,69,48,097,36,84,54,078,,83,02,094,*6D
$GLGSV,3,3,10,77,07,358,,86,09,280,*60
$GAGSV,3,1,11,12,82,078,24,02,14,329,,29,24,062,,19,18,110,*6D
$GAGSV,3,2,11,24,34,211,41,33,25,076,,25,44,279,,16,45,243,32*60
$GAGSV,3,3,11,11,42,256,,10,72,256,28,07,08,012,*5C
$GBGSV,5,1,18,43,74,125,32,08,21,039,,33,14,174,,37,20,272,*62
$GBGSV,5,2,18,46,16,327,,13,33,047,,05,15,125,,21,35,054,24*62
$GBGSV,5,3,18,34,22,110,36,14,32,155,33,50,46,083,,28,40,282,*69
$GBGSV,5,4,18,42,46,123,39,11,47,106,36,02,03,102,,23,04,227,*6C
$GBGSV,5,5,18,38,10,041,,60,05,105,*6A
$GPZDA,094559.00,19,06,2025,,*69
$GPRMC,094559.00,A,5609.5907131,N,01012.2747509,E,0.0,,190625,4.2,E,A*1A
$GPGLL,5609.5907131,N,01012.2747509,E,094559.00,A,A*67
$GPGGA,094559.00,5609.5907131,N,01012.2747509,E,1,12,1.4,18.8575,M,43.2849,M,,*52
$GPVTG,,T,,M,0.01,N,0.02,K,A*20
$GPHDT,,T*1B
$GPGSA,A,3,10,27,,,,,,,,,,,2.2,1.4,1.8*3A
$GPGSA,A,3,69,,,,,,,,,,,,2.2,1.4,1.8*31
$GPGSA,A,3,10,12,16,24,,,,,,,,,2.2,1.4,1.8*3D
$GPGSA,A,3,11,21,34,42,43,,,,,,,,2.2,1.4,1.8*3B
$GPGBS,094559.00,594.859,1252.490,1874.836,11,0.0001,-3.250,6.411*73
$GPGSV,3,1,12,08,70,258,,32,16,128,,23,30,052,,01,14,257,*74
$GPGSV,3,2,12,27,58,156,47,02,45,265,,10,65,097,37,18,01,081,*79
$GPGSV,3,3,12,16,10,189,,14,08,333,,30,04,307,,15,05,020,*72
$GLGSV,3,1,10,85,64,304,,68,30,032,,70,12,163,,75,26,249,34*6C
$GLGSV,3,2,10,76,31,317,,69,48,097,36,84,54,078,,83,02,094,*6D
$GLGSV,3,3,10,77,07,358,,86,09,280,*60
$GAGSV,3,1,11,12,82,078,25,02,14,329,,29,24,062,,19,18,110,*6C
$GAGSV,3,2,11,24,34,211,41,33,25,076,,25,44,279,,16,45,243,32*60
$GAGSV,3,3,11,11,42,256,,10,72,256,28,07,08,012,*5C
$GBGSV,5,1,18,43,74,125,32,08,21,039,,33,14,174,,37,20,272,*62
$GBGSV,5,2,18,46,16,327,,13,33,047,,05,15,125,,21,35,054,22*64
$GBGSV,5,3,18,34,22,110,35,14,32,155,33,50,46,083,,28,40,282,*6A
$GBGSV,5,4,18,42,46,123,39,11,47,106,36,02,03,102,,23,04,227,*6C
$GBGSV,5,5,18,38,10,041,,60,05,105,*6A
$GPZDA,094600.00,19,06,2025,,*66
$GPRMC,094600.00,A,5609.5907135,N,01012.2747742,E,0.0,,190625,4.2,E,A*1C
$GPGLL,5609.5907135,N,01012.2747742,E,094600.00,A,A*61
$GPGGA,094600.00,5609.5907135,N,01012.2747742,E,1,13,1.2,18.8677,M,43.2849,M,,*52
$GPVTG,,T,,M,0.01,N,0.01,K,A*23
$GPHDT,,T*1B
$GPGSA,A,3,02,10,27,,,,,,,,,,2.1,1.2,1.7*32
$GPGSA,A,3,69,,,,,,,,,,,,2.1,1.2,1.7*3B
$GPGSA,A,3,10,12,16,24,,,,,,,,,2.1,1.2,1.7*37
$GPGSA,A,3,11,21,34,42,43,,,,,,,,2.1,1.2,1.7*31
$GPGBS,094600.00,557.958,1186.889,1783.366,11,0.0001,-3.507,6.434*76
$GPGSV,3,1,12,08,70,258,,32,16,128,,23,30,052,,01,14,257,*74
$GPGSV,3,2,12,27,58,156,47,02,45,265,20,10,65,097,37,18,01,081,*7B
$GPGSV,3,3,12,16,10,189,,14,08,333,,30,04,307,,15,05,020,*72
$GLGSV,3,1,10,85,64,304,,68,30,032,,70,12,163,,75,26,249,35*6D
$GLGSV,3,2,10,76,31,317,,69,48,097,35,84,54,078,,83,02,094,*6E
$GLGSV,3,3,10,77,07,358,,86,09,280,*60
$GAGSV,3,1,11,12,82,078,24,02,14,329,,29,24,062,,19,18,110,*6D
$GAGSV,3,2,11,24,34,211,41,33,25,076,,25,44,279,,16,45,243,32*60
$GAGSV,3,3,11,11,42,256,,10,72,256,28,07,08,012,*5C
$GBGSV,5,1,18,43,74,125,32,08,21,039,,33,14,174,,37,20,272,*62
$GBGSV,5,2,18,46,16,327,,13,33,047,,05,15,125,,21,35,054,23*65
$GBGSV,5,3,18,34,22,110,36,14,32,155,33,50,46,083,,28,40,282,*69
$GBGSV,5,4,18,42,46,123,39,11,47,106,36,02,03,102,,23,04,227,*6C
$GBGSV,5,5,18,38,10,041,,60,05,105,*6A
$GPZDA,094601.00,19,06,2025,,*67
$GPRMC,094601.00,A,5609.5907166,N,01012.2747789,E,0.0,,190625,4.2,E,A*1C
$GPGLL,5609.5907166,N,01012.2747789,E,094601.00,A,A*61
$GPGGA,094601.00,5609.5907166,N,01012.2747789,E,1,13,1.2,18.8454,M,43.2849,M,,*51
$GPVTG,,T,,M,0.00,N,0.01,K,A*22
$GPHDT,,T*1B
$GPGSA,A,3,02,10,27,,,,,,,,,,2.1,1.2,1.7*32
$GPGSA,A,3,69,,,,,,,,,,,,2.1,1.2,1.7*3B
$GPGSA,A,3,10,12,16,24,,,,,,,,,2.1,1.2,1.7*37
$GPGSA,A,3,11,21,34,42,43,,,,,,,,2.1,1.2,1.7*31
$GPGBS,094601.00,559.474,1182.355,1781.578,11,0.0001,-3.315,6.414*78
$GPGSV,3,1,12,08,70,258,,32,16,128,,23,30,052,,01,14,257,*74
$GPGSV,3,2,12,27,58,156,47,02,45,265,21,10,65,097,37,18,01,081,*7A
$GPGSV,3,3,12,16,10,189,,14,08,333,,30,04,307,,15,05,020,*72
$GLGSV,3,1,10,85,64,305,,68,30,032,,70,12,163,,75,26,249,35*6C
$GLGSV,3,2,10,76,31,317,,69,48,097,36,84,54,078,,83,02,094,*6D
$GLGSV,3,3,10,77,07,358,,86,09,280,*60
$GAGSV,3,1,11,12,82,078,24,02,14,329,,29,24,062,,19,18,110,*6D
$GAGSV,3,2,11,24,34,211,41,33,25,076,,25,44,279,,16,45,243,33*61
$GAGSV,3,3,11,11,42,256,,10,72,256,28,07,08,012,*5C
$GBGSV,5,1,18,43,74,125,31,08,21,039,,33,14,174,,37,20,272,*61
$GBGSV,5,2,18,46,16,327,,13,33,047,,05,15,125,,21,35,054,23*65
$GBGSV,5,3,18,34,22,110,36,14,32,155,33,50,46,083,,28,40,282,*69
$GBGSV,5,4,18,42,46,123,39,11,47,106,36,02,03,102,,23,04,227,*6C
$GBGSV,5,5,18,38,10,041,,60,05,105,*6A
$GPZDA,094602.00,19,06,2025,,*64
$GPRMC,094602.00,A,5609.5907108,N,01012.2747796,E,0.0,,190625,4.2,E,A*19
$GPGLL,5609.5907108,N,01012.2747796,E,094602.00,A,A*64
$GPGGA,094602.00,5609.5907108,N,01012.2747796,E,1,13,1.2,18.8379,M,43.2849,M,,*5C
$GPVTG,,T,,M,0.00,N,0.01,K,A*22
$GPHDT,,T*1B
$GPGSA,A,3,02,10,27,,,,,,,,,,2.1,1.2,1.7*32
$GPGSA,A,3,69,,,,,,,,,,,,2.1,1.2,1.7*3B
$GPGSA,A,3,10,12,16,24,,,,,,,,,2.1,1.2,1.7*37
$GPGSA,A,3,11,21,34,42,43,,,,,,,,2.1,1.2,1.7*31
$GPGBS,094602.00,558.389,1175.921,1773.018,11,0.0001,-3.204,6.412*77
$GPGSV,3,1,12,08,70,258,,32,16,128,,23,30,052,,01,14,257,*74
$GPGSV,3,2,12,27,58,156,47,02,45,265,23,10,65,097,37,18,01,081,*78
$GPGSV,3,3,12,16,10,189,,14,08,333,,30,04,307,,15,05,020,*72
$GLGSV,3,1,10,85,64,305,,68,30,032,,70,12,163,,75,26,249,35*6C
$GLGSV,3,2,10,76,31,317,,69,48,097,36,84,54,078,,83,02,094,*6D
$GLGSV,3,3,10,77,07,358,,86,09,280,*60
$GAGSV,3,1,11,12,82,078,24,02,14,329,,29,24,062,,19,18,110,*6D
$GAGSV,3,2,11,24,34,211,41,33,25,076,,25,44,279,,16,45,243,32*60
$GAGSV,3,3,11,11,42,256,,10,72,256,29,07,08,012,*5D
$GBGSV,5,1,18,43,74,125,31,08,21,039,,33,14,174,,37,20,272,*61
$GBGSV,5,2,18,46,16,327,,13,33,047,,05,15,125,,21,35,054,22*64
$GBGSV,5,3,18,34,22,110,36,14,32,155,33,50,46,083,,28,40,282,*69
$GBGSV,5,4,18,42,46,123,39,11,47,106,36,02,03,102,,23,04,227,*6C
$GBGSV,5,5,18,38,10,041,,60,05,105,*6A
$GPZDA,094603.00,19,06,2025,,*65
$GPRMC,094603.00,A,5609.5907138,N,01012.2747901,E,0.0,,190625,4.2,E,A*1B
$GPGLL,5609.5907138,N,01012.2747901,E,094603.00,A,A*66
$GPGGA,094603.00,5609.5907138,N,01012.2747901,E,1,13,1.2,18.8206,M,43.2849,M,,*57
$GPVTG,,T,,M,0.00,N,0.01,K,A*22
$GPHDT,,T*1B
$GPGSA,A,3,02,10,27,,,,,,,,,,2.1,1.2,1.7*32
$GPGSA,A,3,69,,,,,,,,,,,,2.1,1.2,1.7*3B
$GPGSA,A,3,10,12,16,24,,,,,,,,,2.1,1.2,1.7*37
$GPGSA,A,3,11,21,34,42,43,,,,,,,,2.1,1.2,1.7*31
$GPGBS,094603.00,558.006,1180.579,1778.876,11,0.0001,-2.867,6.415*7B
$GPGSV,3,1,12,08,70,258,,32,16,128,,23,30,052,,01,14,257,*74
$GPGSV,3,2,12,27,58,156,47,02,45,265,22,10,65,097,37,18,01,081,*79
$GPGSV,3,3,12,16,10,189,,14,08,333,,30,04,307,,15,05,020,*72
$GLGSV,3,1,10,85,64,305,,68,30,032,,70,12,163,,75,26,249,35*6C
$GLGSV,3,2,10,76,31,317,,69,48,097,36,84,54,078,,83,02,094,*6D
$GLGSV,3,3,10,77,07,358,,86,09,280,*60
$GAGSV,3,1,11,12,82,078,25,02,14,329,,29,24,062,,19,18,110,*6C
$GAGSV,3,2,11,24,34,211,41,33,25,076,,25,44,279,,16,45,243,32*60
$GAGSV,3,3,11,11,42,256,,10,72,256,28,07,08,012,*5C
$GBGSV,5,1,18,43,74,125,32,08,21,039,,33,14,174,,37,20,272,*62
$GBGSV,5,2,18,46,16,327,,13,33,047,,05,15,125,,21,35,054,22*64
$GBGSV,5,3,18,34,22,110,36,14,32,155,33,50,46,083,,28,40,282,*69
$GBGSV,5,4,18,42,46,123,39,11,47,106,36,02,03,102,,23,04,227,*6C
$GBGSV,5,5,18,38,10,041,,60,05,105,*6A
